[
{
  "pk": 1,
  "model": "events.functionalarea",
  "fields": {
    "color": "orange-1",
    "name": "Quality Assurance",
    "slug": "quality-assurance"
  }
},
{
  "pk": 2,
  "model": "events.functionalarea",
  "fields": {
    "color": "blue-1",
    "name": "Localization",
    "slug": "localization"
  }
},
{
  "pk": 3,
  "model": "events.functionalarea",
  "fields": {
    "color": "green-1",
    "name": "Accessibility",
    "slug": "accessibility"
  }
},
{
  "pk": 4,
  "model": "events.functionalarea",
  "fields": {
    "color": "red-1",
    "name": "l10n",
    "slug": "l10n"
  }
},
{
  "pk": 5,
  "model": "events.functionalarea",
  "fields": {
    "color": "purple-1",
    "name": "Mobile",
    "slug": "mobile"
  }
},
{
  "pk": 6,
  "model": "events.functionalarea",
  "fields": {
    "color": "gray-1",
    "name": "Hardware",
    "slug": "hardware"
  }
},
{
  "pk": 7,
  "model": "events.functionalarea",
  "fields": {
    "color": "gray-1",
    "name": "Video",
    "slug": "video"
  }
},
{
  "pk": 8,
  "model": "events.functionalarea",
  "fields": {
    "color": "gray-1",
    "name": "Firefox OS",
    "slug": "firefox-os"
  }
},
{
  "pk": 9,
  "model": "events.functionalarea",
  "fields": {
    "color": "gray-1",
    "name": "Development",
    "slug": "development"
  }
},
{
  "pk": 10,
  "model": "events.functionalarea",
  "fields": {
    "color": "gray-1",
    "name": "Security",
    "slug": "security"
  }
},
{
  "pk": 1,
  "model": "events.space",
  "fields": {
    "city": "Mountain View",
    "name": "Mountain View",
    "timezone": "America/Los_Angeles",
    "country": "us",
    "address2": "",
    "lon": -122.0609917,
    "postal_code": "94041",
    "address": "331 E. Evelyn Avenue",
    "lat": 37.3874349,
    "slug": "mountain-view",
    "photo": null
  }
},
{
  "pk": 2,
  "model": "events.space",
  "fields": {
    "city": "London",
    "name": "London",
    "timezone": "Europe/London",
    "country": "gb",
    "address2": "",
    "lon": -0.127497,
    "postal_code": "WC2N 4AZ",
    "address": "101 St Martin's Lane, 3rd Floor",
    "lat": 51.51045,
    "slug": "london",
    "photo": null
  }
},
{
  "pk": 3,
  "model": "events.space",
  "fields": {
    "city": "Paris",
    "name": "Paris",
    "timezone": "Europe/Paris",
    "country": "fr",
    "address2": "",
    "lon": 2.3411542,
    "postal_code": "75009",
    "address": "16 Bis Boulevard Montmartre",
    "lat": 48.8721388,
    "slug": "paris",
    "photo": null
  }
},
{
  "pk": 4,
  "model": "events.space",
  "fields": {
    "city": "Auckland",
    "name": "Auckland",
    "timezone": "Pacific/Auckland",
    "country": "us",
    "address2": "",
    "lon": 174.777106,
    "postal_code": "",
    "address": "",
    "lat": -36.866596,
    "slug": "auckland",
    "photo": null
  }
},
{
  "pk": 5,
  "model": "events.space",
  "fields": {
    "city": "Beijing",
    "name": "Beijing",
    "timezone": "Asia/Shanghai",
    "country": "cn",
    "address2": "",
    "lon": 116.43405,
    "postal_code": "",
    "address": "",
    "lat": 39.909901,
    "slug": "beijing",
    "photo": null
  }
},
{
  "pk": 6,
  "model": "events.space",
  "fields": {
    "city": "Berlin",
    "name": "Berlin",
    "timezone": "Europe/Berlin",
    "country": "de",
    "address2": "",
    "lon": 13.418735,
    "postal_code": "",
    "address": "",
    "lat": 52.512408,
    "slug": "berlin",
    "photo": null
  }
},
{
  "pk": 7,
  "model": "events.space",
  "fields": {
    "city": "Portland",
    "name": "Portland",
    "timezone": "America/Los_Angeles",
    "country": "us",
    "address2": "",
    "lon": -122.6827999,
    "postal_code": "",
    "address": "",
    "lat": 45.5236536,
    "slug": "portland",
    "photo": null
  }
},
{
  "pk": 8,
  "model": "events.space",
  "fields": {
    "city": "San Francisco",
    "name": "San Francisco",
    "timezone": "America/Los_Angeles",
    "country": "us",
    "address2": "",
    "lon": -122.38889,
    "postal_code": "",
    "address": "",
    "lat": 37.78955,
    "slug": "san-francisco",
    "photo": null
  }
},
{
  "pk": 9,
  "model": "events.space",
  "fields": {
    "city": "Taipei",
    "name": "Taipei",
    "timezone": "Asia/Taipei",
    "country": "tw",
    "address2": "",
    "lon": 121.56705,
    "postal_code": "",
    "address": "",
    "lat": 25.03265,
    "slug": "taipei",
    "photo": null
  }
},
{
  "pk": 10,
  "model": "events.space",
  "fields": {
    "city": "Tokyo",
    "name": "Tokyo",
    "timezone": "Asia/Tokyo",
    "country": "jp",
    "address2": "",
    "lon": 139.727765,
    "postal_code": "",
    "address": "",
    "lat": 35.665208,
    "slug": "tokyo",
    "photo": null
  }
},
{
  "pk": 11,
  "model": "events.space",
  "fields": {
    "city": "Toronto",
    "name": "Toronto",
    "timezone": "America/Toronto",
    "country": "ca",
    "address2": "",
    "lon": -79.3943,
    "postal_code": "",
    "address": "",
    "lat": 43.64715,
    "slug": "toronto",
    "photo": null
  }
},
{
  "pk": 12,
  "model": "events.space",
  "fields": {
    "city": "Vancouver",
    "name": "Vancouver",
    "timezone": "America/Vancouver",
    "country": "ca",
    "address2": "",
    "lon": -123.1091763,
    "postal_code": "",
    "address": "",
    "lat": 49.2824945,
    "slug": "vancouver",
    "photo": null
  }
}
]
